{
  "id": "anna-komnene-dyrrachium",
  "era": "byzantium",
  "title": "Anna Komnene — Alexios at Dyrrachium",
  "themeSuggestion": "byzantium-gold",
  "viewport": "auto",
  "intro": {
    "title": "Against the Norman",
    "dateline": "1081-1083 CE",
    "body": "Alexios I Komnenos faced Robert Guiscard's Norman invasion of the Adriatic in his first year as emperor. Anna's Alexiad IV-VI gives the daughter's account of her father's campaign, from the loss at Dyrrachium to the recovery of Kastoria."
  },
  "companions": ["Alexios", "Anna Komnene"],
  "stops": [
    {
      "id": "stop-1",
      "name": "Constantinople",
      "lat": 41.01,
      "lon": 28.97,
      "note": "Alexios crowned 1 April 1081. By autumn the Norman invasion forces him west.",
      "imagePrompt": "Hand-coloured plate. Imperial coronation in Hagia Sophia, banners and lances behind.",
      "vehicleToNext": "horse"
    },
    {
      "id": "stop-2",
      "name": "Thessalonica",
      "lat": 40.64,
      "lon": 22.94,
      "note": "Alexios musters Varangians and Macedonian levies here, October 1081.",
      "imagePrompt": "Hand-coloured plate. Macedonian capital with Norse axemen and Greek heavy cavalry assembling in the forum.",
      "vehicleToNext": "horse"
    },
    {
      "id": "stop-3",
      "name": "Dyrrachium",
      "lat": 41.32,
      "lon": 19.45,
      "note": "18 October 1081. Robert Guiscard breaks the Byzantine army; Alexios is wounded and escapes the field (Alexiad IV.6-7).",
      "imagePrompt": "Hand-coloured plate. Coastal walls under Norman siege, Byzantine cavalry retreating along a rain-soaked track.",
      "vehicleToNext": "horse"
    },
    {
      "id": "stop-4",
      "name": "Kastoria",
      "lat": 40.52,
      "lon": 21.27,
      "note": "Lake town recovered by Alexios in winter 1082. Anna describes the icy ride across the lake to the Norman-held island.",
      "imagePrompt": "Hand-coloured plate. Frozen lake with island fortress, byzantine cavalry crossing the ice with planks.",
      "vehicleToNext": "horse"
    },
    {
      "id": "stop-5",
      "name": "Larissa",
      "lat": 39.64,
      "lon": 22.42,
      "note": "Bohemond besieges Larissa 1082-1083. Alexios relieves it; the Normans retreat from Greece.",
      "imagePrompt": "Hand-coloured plate. Thessalian plain town with citadel, Byzantine relief column descending from the pass.",
      "vehicleToNext": "horse"
    }
  ]
}
